{
"type": "FeatureCollection",
"name": "Sites_with_Clusters",
"crs": { "type": "name", "properties": { "name": "urn:ogc:def:crs:OGC:1.3:CRS84" } },
"features": [
{ "type": "Feature", "properties": { "Name": "BONNEY LAKE", "Address": "18501 90TH ST E", "City": "BONNEY LAKE", "Type": "Library", "Nearby_Count_500": 2, "Nearby_Count_1000": 4, "Nearby_Count_2000": 5, "Nearby_Count_3000": 10, "Nearest_Transit_Distance": 490.0, "Nearest_Road_Distance": 240.0, "index_right": 45.0, "RUCA_Code": 1.0, "Cluster": 2 }, "geometry": { "type": "Point", "coordinates": [ -122.182183771142675, 47.175638081967321 ] } },
{ "type": "Feature", "properties": { "Name": "BUCKLEY", "Address": "123 S RIVER AVE", "City": "BUCKLEY", "Type": "Library", "Nearby_Count_500": 0, "Nearby_Count_1000": 4, "Nearby_Count_2000": 6, "Nearby_Count_3000": 6, "Nearest_Transit_Distance": 17352.0, "Nearest_Road_Distance": 95.0, "index_right": 43.0, "RUCA_Code": 1.0, "Cluster": 1 }, "geometry": { "type": "Point", "coordinates": [ -122.029763658892278, 47.162624028386887 ] } },
{ "type": "Feature", "properties": { "Name": "DUPONT", "Address": "1540 WILMINGTON DR", "City": "DUPONT", "Type": "Library", "Nearby_Count_500": 0, "Nearby_Count_1000": 0, "Nearby_Count_2000": 0, "Nearby_Count_3000": 0, "Nearest_Transit_Distance": 554.0, "Nearest_Road_Distance": 365.0, "index_right": 126.0, "RUCA_Code": 1.0, "Cluster": 1 }, "geometry": { "type": "Point", "coordinates": [ -122.644309500881249, 47.091730200939779 ] } },
{ "type": "Feature", "properties": { "Name": "EATONVILLE", "Address": "205 CENTER ST W", "City": "EATONVILLE", "Type": "Library", "Nearby_Count_500": 0, "Nearby_Count_1000": 3, "Nearby_Count_2000": 5, "Nearby_Count_3000": 5, "Nearest_Transit_Distance": 36547.0, "Nearest_Road_Distance": 29.0, "index_right": 152.0, "RUCA_Code": 2.0, "Cluster": 1 }, "geometry": { "type": "Point", "coordinates": [ -122.268911913972516, 46.867158164827174 ] } },
{ "type": "Feature", "properties": { "Name": "GRAHAM", "Address": "9202 224TH ST E", "City": "GRAHAM", "Type": "Library", "Nearby_Count_500": 0, "Nearby_Count_1000": 0, "Nearby_Count_2000": 3, "Nearby_Count_3000": 5, "Nearest_Transit_Distance": 7179.0, "Nearest_Road_Distance": 75.0, "index_right": 141.0, "RUCA_Code": 1.0, "Cluster": 1 }, "geometry": { "type": "Point", "coordinates": [ -122.307837083594819, 47.052724882648945 ] } },
{ "type": "Feature", "properties": { "Name": "KEY CENTER", "Address": "8905 KEY PENINSULA HWY NW", "City": "LAKEBAY", "Type": "Library", "Nearby_Count_500": 0, "Nearby_Count_1000": 0, "Nearby_Count_2000": 0, "Nearby_Count_3000": 0, "Nearest_Transit_Distance": 15851.0, "Nearest_Road_Distance": 54.0, "index_right": 124.0, "RUCA_Code": 1.0, "Cluster": 1 }, "geometry": { "type": "Point", "coordinates": [ -122.74656617230788, 47.33838871623685 ] } },
{ "type": "Feature", "properties": { "Name": "MILTON/EDGEWOOD", "Address": "900 MERIDIAN E, SUITE 29", "City": "MILTON", "Type": "Library", "Nearby_Count_500": 0, "Nearby_Count_1000": 2, "Nearby_Count_2000": 6, "Nearby_Count_3000": 11, "Nearest_Transit_Distance": 351.0, "Nearest_Road_Distance": 218.0, "index_right": 57.0, "RUCA_Code": 1.0, "Cluster": 2 }, "geometry": { "type": "Point", "coordinates": [ -122.295819118694396, 47.247200822667217 ] } },
{ "type": "Feature", "properties": { "Name": "ORTING", "Address": "202 WASHINGTON AVE S", "City": "ORTING", "Type": "Library", "Nearby_Count_500": 1, "Nearby_Count_1000": 2, "Nearby_Count_2000": 3, "Nearby_Count_3000": 3, "Nearest_Transit_Distance": 10159.0, "Nearest_Road_Distance": 29.0, "index_right": 55.0, "RUCA_Code": 1.0, "Cluster": 2 }, "geometry": { "type": "Point", "coordinates": [ -122.202491117407078, 47.096972884355402 ] } },
{ "type": "Feature", "properties": { "Name": "ADMINISTRATIVE CENTER AND LIBRARY", "Address": "3005 112TH ST E", "City": "TACOMA", "Type": "Library", "Nearby_Count_500": 3, "Nearby_Count_1000": 3, "Nearby_Count_2000": 3, "Nearby_Count_3000": 10, "Nearest_Transit_Distance": 192.0, "Nearest_Road_Distance": 114.0, "index_right": 66.0, "RUCA_Code": 1.0, "Cluster": 2 }, "geometry": { "type": "Point", "coordinates": [ -122.38703701681878, 47.155532993934337 ] } },
{ "type": "Feature", "properties": { "Name": "PARKLAND/SPANAWAY", "Address": "13718 PACIFIC AVE S", "City": "TACOMA", "Type": "Library", "Nearby_Count_500": 5, "Nearby_Count_1000": 14, "Nearby_Count_2000": 34, "Nearby_Count_3000": 63, "Nearest_Transit_Distance": 162.0, "Nearest_Road_Distance": 150.0, "index_right": 78.0, "RUCA_Code": 1.0, "Cluster": 3 }, "geometry": { "type": "Point", "coordinates": [ -122.436025798582577, 47.132247565922164 ] } },
{ "type": "Feature", "properties": { "Name": "GIG HARBOR", "Address": "4424 POINT FOSDICK DR NW", "City": "GIG HARBOR", "Type": "Library", "Nearby_Count_500": 2, "Nearby_Count_1000": 2, "Nearby_Count_2000": 4, "Nearby_Count_3000": 4, "Nearest_Transit_Distance": 121.0, "Nearest_Road_Distance": 816.0, "index_right": 115.0, "RUCA_Code": 1.0, "Cluster": 2 }, "geometry": { "type": "Point", "coordinates": [ -122.579979471301613, 47.299080027258007 ] } },
{ "type": "Feature", "properties": { "Name": "SOUTH HILL", "Address": "15420 MERIDIAN E", "City": "PUYALLUP", "Type": "Library", "Nearby_Count_500": 4, "Nearby_Count_1000": 6, "Nearby_Count_2000": 14, "Nearby_Count_3000": 27, "Nearest_Transit_Distance": 176.0, "Nearest_Road_Distance": 96.0, "index_right": 145.0, "RUCA_Code": 1.0, "Cluster": 2 }, "geometry": { "type": "Point", "coordinates": [ -122.294122177897577, 47.1163400218297 ] } },
{ "type": "Feature", "properties": { "Name": "STEILACOOM", "Address": "2950 STEILACOOM BLVD", "City": "STEILACOOM", "Type": "Library", "Nearby_Count_500": 1, "Nearby_Count_1000": 2, "Nearby_Count_2000": 2, "Nearby_Count_3000": 9, "Nearest_Transit_Distance": 109.0, "Nearest_Road_Distance": 36.0, "index_right": 101.0, "RUCA_Code": 1.0, "Cluster": 2 }, "geometry": { "type": "Point", "coordinates": [ -122.578875812056111, 47.17669191276692 ] } },
{ "type": "Feature", "properties": { "Name": "SUMMIT", "Address": "5107 112TH ST E", "City": "TACOMA", "Type": "Library", "Nearby_Count_500": 5, "Nearby_Count_1000": 9, "Nearby_Count_2000": 13, "Nearby_Count_3000": 13, "Nearest_Transit_Distance": 89.0, "Nearest_Road_Distance": 75.0, "index_right": 66.0, "RUCA_Code": 1.0, "Cluster": 2 }, "geometry": { "type": "Point", "coordinates": [ -122.360632721961537, 47.154893985792917 ] } },
{ "type": "Feature", "properties": { "Name": "SUMNER", "Address": "1116 FRYAR AVE", "City": "SUMNER", "Type": "Library", "Nearby_Count_500": 2, "Nearby_Count_1000": 2, "Nearby_Count_2000": 8, "Nearby_Count_3000": 14, "Nearest_Transit_Distance": 530.0, "Nearest_Road_Distance": 227.0, "index_right": 153.0, "RUCA_Code": 1.0, "Cluster": 2 }, "geometry": { "type": "Point", "coordinates": [ -122.244453812517278, 47.205000118377725 ] } },
{ "type": "Feature", "properties": { "Name": "TILLICUM", "Address": "14916 WASHINGTON AVE SW", "City": "LAKEWOOD", "Type": "Library", "Nearby_Count_500": 2, "Nearby_Count_1000": 7, "Nearby_Count_2000": 8, "Nearby_Count_3000": 9, "Nearest_Transit_Distance": 282.0, "Nearest_Road_Distance": 412.0, "index_right": 96.0, "RUCA_Code": 1.0, "Cluster": 2 }, "geometry": { "type": "Point", "coordinates": [ -122.554258767067481, 47.12382560624291 ] } },
{ "type": "Feature", "properties": { "Name": "UNIVERSITY PLACE", "Address": "3609 MARKET PLACE W", "City": "UNIVERSITY PLACE", "Type": "Library", "Nearby_Count_500": 1, "Nearby_Count_1000": 3, "Nearby_Count_2000": 6, "Nearby_Count_3000": 12, "Nearest_Transit_Distance": 127.0, "Nearest_Road_Distance": 131.0, "index_right": 109.0, "RUCA_Code": 1.0, "Cluster": 2 }, "geometry": { "type": "Point", "coordinates": [ -122.535864063577577, 47.225916514761259 ] } },
{ "type": "Feature", "properties": { "Name": "FIFE", "Address": "6622 20TH ST E", "City": "FIFE", "Type": "Library", "Nearby_Count_500": 0, "Nearby_Count_1000": 6, "Nearby_Count_2000": 30, "Nearby_Count_3000": 66, "Nearest_Transit_Distance": 51.0, "Nearest_Road_Distance": 415.0, "index_right": 163.0, "RUCA_Code": 1.0, "Cluster": 2 }, "geometry": { "type": "Point", "coordinates": [ -122.340714824015024, 47.238659763553066 ] } },
{ "type": "Feature", "properties": { "Name": "ANDERSON ISLAND", "Address": "11319 YOMAN RD", "City": "ANDERSON ISLAND", "Type": "Library", "Nearby_Count_500": 0, "Nearby_Count_1000": 0, "Nearby_Count_2000": 0, "Nearby_Count_3000": 0, "Nearest_Transit_Distance": 9739.0, "Nearest_Road_Distance": 42.0, "index_right": 125.0, "RUCA_Code": 2.0, "Cluster": 1 }, "geometry": { "type": "Point", "coordinates": [ -122.69021115140221, 47.173769908420006 ] } },
{ "type": "Feature", "properties": { "Name": "GRANDSTAFF", "Address": "2109 N 10TH ST", "City": "JBLM", "Type": "Library", "Nearby_Count_500": 0, "Nearby_Count_1000": 1, "Nearby_Count_2000": 1, "Nearby_Count_3000": 1, "Nearest_Transit_Distance": 4559.0, "Nearest_Road_Distance": 1929.0, "index_right": 129.0, "RUCA_Code": 1.0, "Cluster": 1 }, "geometry": { "type": "Point", "coordinates": [ -122.599073018435163, 47.089469561171654 ] } },
{ "type": "Feature", "properties": { "Name": "MCCHORD", "Address": "851 LINCOLN BLVD SW", "City": "JBLM", "Type": "Library", "Nearby_Count_500": 0, "Nearby_Count_1000": 0, "Nearby_Count_2000": 0, "Nearby_Count_3000": 2, "Nearest_Transit_Distance": 2604.0, "Nearest_Road_Distance": 2892.0, "index_right": 127.0, "RUCA_Code": 1.0, "Cluster": 1 }, "geometry": { "type": "Point", "coordinates": [ -122.503594418588477, 47.121755561291245 ] } },
{ "type": "Feature", "properties": { "Name": "CARBONADO FIRE DEPARTMENT (VOLUNTEER)", "Address": "251 COAL AVE", "City": "CARBONADO", "Type": "Fire Station", "Nearby_Count_500": 0, "Nearby_Count_1000": 0, "Nearby_Count_2000": 0, "Nearby_Count_3000": 0, "Nearest_Transit_Distance": 21201.0, "Nearest_Road_Distance": 620.0, "index_right": 42.0, "RUCA_Code": 1.0, "Cluster": 1 }, "geometry": { "type": "Point", "coordinates": [ -122.052972441269716, 47.079770376090231 ] } },
{ "type": "Feature", "properties": { "Name": "CENTRAL PIERCE FIRE AND RESCUE - STATION 60", "Address": "17520 22ND AVE E", "City": "SPANAWAY", "Type": "Fire Station", "Nearby_Count_500": 0, "Nearby_Count_1000": 1, "Nearby_Count_2000": 8, "Nearby_Count_3000": 14, "Nearest_Transit_Distance": 3796.0, "Nearest_Road_Distance": 75.0, "index_right": 75.0, "RUCA_Code": 1.0, "Cluster": 2 }, "geometry": { "type": "Point", "coordinates": [ -122.400763021092146, 47.097351415864523 ] } },
{ "type": "Feature", "properties": { "Name": "CENTRAL PIERCE FIRE AND RESCUE - STATION 61", "Address": "100 114TH ST S", "City": "PARKLAND", "Type": "Fire Station", "Nearby_Count_500": 3, "Nearby_Count_1000": 21, "Nearby_Count_2000": 49, "Nearby_Count_3000": 81, "Nearest_Transit_Distance": 229.0, "Nearest_Road_Distance": 232.0, "index_right": 88.0, "RUCA_Code": 1.0, "Cluster": 3 }, "geometry": { "type": "Point", "coordinates": [ -122.432208303823927, 47.15292882031018 ] } },
{ "type": "Feature", "properties": { "Name": "CENTRAL PIERCE FIRE AND RESCUE - STATION 63", "Address": "1704 97TH ST E", "City": "MIDLAND", "Type": "Fire Station", "Nearby_Count_500": 1, "Nearby_Count_1000": 2, "Nearby_Count_2000": 8, "Nearby_Count_3000": 20, "Nearest_Transit_Distance": 2209.0, "Nearest_Road_Distance": 1541.0, "index_right": 83.0, "RUCA_Code": 1.0, "Cluster": 2 }, "geometry": { "type": "Point", "coordinates": [ -122.406156121777272, 47.16857586735572 ] } },
{ "type": "Feature", "properties": { "Name": "CENTRAL PIERCE FIRE AND RESCUE - STATION 64", "Address": "3421 224TH ST E", "City": "ELK PLAIN", "Type": "Fire Station", "Nearby_Count_500": 0, "Nearby_Count_1000": 0, "Nearby_Count_2000": 3, "Nearby_Count_3000": 4, "Nearest_Transit_Distance": 4104.0, "Nearest_Road_Distance": 78.0, "index_right": 72.0, "RUCA_Code": 1.0, "Cluster": 1 }, "geometry": { "type": "Point", "coordinates": [ -122.383958935019265, 47.053710870128342 ] } },
{ "type": "Feature", "properties": { "Name": "CENTRAL PIERCE FIRE AND RESCUE - STATION 65", "Address": "301 146TH ST S", "City": "PARKLAND", "Type": "Fire Station", "Nearby_Count_500": 4, "Nearby_Count_1000": 21, "Nearby_Count_2000": 44, "Nearby_Count_3000": 60, "Nearest_Transit_Distance": 159.0, "Nearest_Road_Distance": 143.0, "index_right": 78.0, "RUCA_Code": 1.0, "Cluster": 3 }, "geometry": { "type": "Point", "coordinates": [ -122.436111388830142, 47.124687688957742 ] } },
{ "type": "Feature", "properties": { "Name": "CENTRAL PIERCE FIRE AND RESCUE - STATION 67", "Address": "8005 CANYON RD E", "City": "SUMMIT", "Type": "Fire Station", "Nearby_Count_500": 0, "Nearby_Count_1000": 2, "Nearby_Count_2000": 3, "Nearby_Count_3000": 3, "Nearest_Transit_Distance": 1268.0, "Nearest_Road_Distance": 53.0, "index_right": 59.0, "RUCA_Code": 1.0, "Cluster": 2 }, "geometry": { "type": "Point", "coordinates": [ -122.356759132830319, 47.184025750040178 ] } },
{ "type": "Feature", "properties": { "Name": "CENTRAL PIERCE FIRE AND RESCUE - STATION 68", "Address": "5401 136TH ST E", "City": "SUMMIT", "Type": "Fire Station", "Nearby_Count_500": 0, "Nearby_Count_1000": 0, "Nearby_Count_2000": 6, "Nearby_Count_3000": 11, "Nearest_Transit_Distance": 3466.0, "Nearest_Road_Distance": 117.0, "index_right": 70.0, "RUCA_Code": 1.0, "Cluster": 2 }, "geometry": { "type": "Point", "coordinates": [ -122.356373690159629, 47.133171672171528 ] } },
{ "type": "Feature", "properties": { "Name": "CENTRAL PIERCE FIRE AND RESCUE - STATION 69", "Address": "17210 110TH AVE E", "City": "SOUTH HILL", "Type": "Fire Station", "Nearby_Count_500": 0, "Nearby_Count_1000": 7, "Nearby_Count_2000": 19, "Nearby_Count_3000": 27, "Nearest_Transit_Distance": 926.0, "Nearest_Road_Distance": 325.0, "index_right": 147.0, "RUCA_Code": 1.0, "Cluster": 2 }, "geometry": { "type": "Point", "coordinates": [ -122.285442243695869, 47.099459100456038 ] } },
{ "type": "Feature", "properties": { "Name": "CENTRAL PIERCE FIRE AND RESCUE - STATION 70", "Address": "PUYALLUP FAIR GROUNDS", "City": "PUYALLUP", "Type": "Fire Station", "Nearby_Count_500": 3, "Nearby_Count_1000": 10, "Nearby_Count_2000": 18, "Nearby_Count_3000": 28, "Nearest_Transit_Distance": 255.0, "Nearest_Road_Distance": 34.0, "index_right": 155.0, "RUCA_Code": 1.0, "Cluster": 2 }, "geometry": { "type": "Point", "coordinates": [ -122.294514908854936, 47.180590591106629 ] } },
{ "type": "Feature", "properties": { "Name": "CENTRAL PIERCE FIRE AND RESCUE - STATION 71", "Address": "902 7TH ST NW", "City": "PUYALLUP", "Type": "Fire Station", "Nearby_Count_500": 4, "Nearby_Count_1000": 13, "Nearby_Count_2000": 34, "Nearby_Count_3000": 41, "Nearest_Transit_Distance": 767.0, "Nearest_Road_Distance": 308.0, "index_right": 158.0, "RUCA_Code": 1.0, "Cluster": 3 }, "geometry": { "type": "Point", "coordinates": [ -122.302694809203459, 47.198986207897576 ] } },
{ "type": "Feature", "properties": { "Name": "CENTRAL PIERCE FIRE AND RESCUE - STATION 72", "Address": "3809 5TH ST SE", "City": "PUYALLUP", "Type": "Fire Station", "Nearby_Count_500": 2, "Nearby_Count_1000": 7, "Nearby_Count_2000": 18, "Nearby_Count_3000": 22, "Nearest_Transit_Distance": 421.0, "Nearest_Road_Distance": 653.0, "index_right": 61.0, "RUCA_Code": 1.0, "Cluster": 2 }, "geometry": { "type": "Point", "coordinates": [ -122.287089054750169, 47.154360722110553 ] } },
{ "type": "Feature", "properties": { "Name": "CENTRAL PIERCE FIRE AND RESCUE - STATION 73", "Address": "311 W PIONEER", "City": "PUYALLUP", "Type": "Fire Station", "Nearby_Count_500": 2, "Nearby_Count_1000": 8, "Nearby_Count_2000": 28, "Nearby_Count_3000": 47, "Nearest_Transit_Distance": 82.0, "Nearest_Road_Distance": 36.0, "index_right": 158.0, "RUCA_Code": 1.0, "Cluster": 3 }, "geometry": { "type": "Point", "coordinates": [ -122.296949604499957, 47.190650724784184 ] } },
{ "type": "Feature", "properties": { "Name": "CITY OF BUCKLEY FIRE DEPARTMENT", "Address": "611 S DIVISION ST", "City": "BUCKLEY", "Type": "Fire Station", "Nearby_Count_500": 1, "Nearby_Count_1000": 2, "Nearby_Count_2000": 3, "Nearby_Count_3000": 6, "Nearest_Transit_Distance": 17225.0, "Nearest_Road_Distance": 475.0, "index_right": 43.0, "RUCA_Code": 1.0, "Cluster": 1 }, "geometry": { "type": "Point", "coordinates": [ -122.032419527463986, 47.155194760723738 ] } },
{ "type": "Feature", "properties": { "Name": "DUPONT FIRE DEPARTMENT", "Address": "1780 CIVIC DR, SUITE 102", "City": "DUPONT", "Type": "Fire Station", "Nearby_Count_500": 0, "Nearby_Count_1000": 0, "Nearby_Count_2000": 0, "Nearby_Count_3000": 0, "Nearest_Transit_Distance": 2737.0, "Nearest_Road_Distance": 2713.0, "index_right": 126.0, "RUCA_Code": 1.0, "Cluster": 1 }, "geometry": { "type": "Point", "coordinates": [ -122.647633636104274, 47.105929543030577 ] } },
{ "type": "Feature", "properties": { "Name": "EAST PIERCE FIRE AND RESCUE - STATION 111 (HEADQUARTERS)", "Address": "18421 VETERANS MEMORIAL DR E", "City": "BONNEY LAKE", "Type": "Fire Station", "Nearby_Count_500": 3, "Nearby_Count_1000": 4, "Nearby_Count_2000": 6, "Nearby_Count_3000": 10, "Nearest_Transit_Distance": 786.0, "Nearest_Road_Distance": 446.0, "index_right": 45.0, "RUCA_Code": 1.0, "Cluster": 2 }, "geometry": { "type": "Point", "coordinates": [ -122.182531917471209, 47.177789533011641 ] } },
{ "type": "Feature", "properties": { "Name": "EAST PIERCE FIRE AND RESCUE - STATION 112 (PRAIRIE RIDGE)", "Address": "12006 214TH AVE E", "City": "BONNEY LAKE", "Type": "Fire Station", "Nearby_Count_500": 1, "Nearby_Count_1000": 3, "Nearby_Count_2000": 15, "Nearby_Count_3000": 21, "Nearest_Transit_Distance": 6174.0, "Nearest_Road_Distance": 3211.0, "index_right": 39.0, "RUCA_Code": 1.0, "Cluster": 1 }, "geometry": { "type": "Point", "coordinates": [ -122.14507523608367, 47.146975773393457 ] } },
{ "type": "Feature", "properties": { "Name": "EAST PIERCE FIRE AND RESCUE - STATION 113 (SUMNER)", "Address": "800 HARRISON ST", "City": "SUMNER", "Type": "Fire Station", "Nearby_Count_500": 2, "Nearby_Count_1000": 2, "Nearby_Count_2000": 4, "Nearby_Count_3000": 16, "Nearest_Transit_Distance": 252.0, "Nearest_Road_Distance": 206.0, "index_right": 154.0, "RUCA_Code": 1.0, "Cluster": 2 }, "geometry": { "type": "Point", "coordinates": [ -122.244611692738573, 47.199800238304412 ] } },
{ "type": "Feature", "properties": { "Name": "EAST PIERCE FIRE AND RESCUE - STATION 114 (LAKE TAPPS)", "Address": "3206 WEST TAPPS DR E", "City": "LAKE TAPPS", "Type": "Fire Station", "Nearby_Count_500": 0, "Nearby_Count_1000": 2, "Nearby_Count_2000": 14, "Nearby_Count_3000": 15, "Nearest_Transit_Distance": 3267.0, "Nearest_Road_Distance": 2952.0, "index_right": 50.0, "RUCA_Code": 1.0, "Cluster": 1 }, "geometry": { "type": "Point", "coordinates": [ -122.201213529055948, 47.227775477032104 ] } },
{ "type": "Feature", "properties": { "Name": "EAST PIERCE FIRE AND RESCUE - STATION 115 (VOLUNTEER - LAKE TAPPS)", "Address": "1605 210TH AVE E", "City": "LAKE TAPPS", "Type": "Fire Station", "Nearby_Count_500": 0, "Nearby_Count_1000": 0, "Nearby_Count_2000": 1, "Nearby_Count_3000": 1, "Nearest_Transit_Distance": 7146.0, "Nearest_Road_Distance": 4594.0, "index_right": 44.0, "RUCA_Code": 1.0, "Cluster": 1 }, "geometry": { "type": "Point", "coordinates": [ -122.147461262000434, 47.242848609959665 ] } },
{ "type": "Feature", "properties": { "Name": "EAST PIERCE FIRE AND RESCUE - STATION 116 (FOOTHILLS)", "Address": "10515 234TH AVE E", "City": "BUCKLEY", "Type": "Fire Station", "Nearby_Count_500": 0, "Nearby_Count_1000": 0, "Nearby_Count_2000": 0, "Nearby_Count_3000": 6, "Nearest_Transit_Distance": 7803.0, "Nearest_Road_Distance": 697.0, "index_right": 41.0, "RUCA_Code": 1.0, "Cluster": 1 }, "geometry": { "type": "Point", "coordinates": [ -122.116925806726385, 47.161493569456169 ] } },
{ "type": "Feature", "properties": { "Name": "EAST PIERCE FIRE AND RESCUE - STATION 118 (EDGEWOOD)", "Address": "10105 24TH ST E", "City": "EDGEWOOD", "Type": "Fire Station", "Nearby_Count_500": 1, "Nearby_Count_1000": 2, "Nearby_Count_2000": 8, "Nearby_Count_3000": 11, "Nearest_Transit_Distance": 121.0, "Nearest_Road_Distance": 104.0, "index_right": 169.0, "RUCA_Code": 1.0, "Cluster": 2 }, "geometry": { "type": "Point", "coordinates": [ -122.294905976133336, 47.235781975426292 ] } },
{ "type": "Feature", "properties": { "Name": "EAST PIERCE FIRE AND RESCUE - STATION 119 (VOLUNTEER - SOUTH PRAIRIE)", "Address": "350 STATE ROUTE 162 E", "City": "SOUTH PRAIRIE", "Type": "Fire Station", "Nearby_Count_500": 1, "Nearby_Count_1000": 9, "Nearby_Count_2000": 9, "Nearby_Count_3000": 10, "Nearest_Transit_Distance": 11539.0, "Nearest_Road_Distance": 58.0, "index_right": 42.0, "RUCA_Code": 1.0, "Cluster": 2 }, "geometry": { "type": "Point", "coordinates": [ -122.093651909537698, 47.139755400000503 ] } },
{ "type": "Feature", "properties": { "Name": "EAST PIERCE FIRE AND RESCUE - STATION 121 (LOGISTICS)", "Address": "27723 SUMNER BUCKLEY HWY E", "City": "BUCKLEY", "Type": "Fire Station", "Nearby_Count_500": 0, "Nearby_Count_1000": 0, "Nearby_Count_2000": 0, "Nearby_Count_3000": 0, "Nearest_Transit_Distance": 13969.0, "Nearest_Road_Distance": 99.0, "index_right": 44.0, "RUCA_Code": 1.0, "Cluster": 1 }, "geometry": { "type": "Point", "coordinates": [ -122.059386949028593, 47.174610674845091 ] } },
{ "type": "Feature", "properties": { "Name": "EAST PIERCE FIRE AND RESCUE - STATION 122 (WATER RESCUE)", "Address": "2905 SUMNER-TAPPS HWY E", "City": "LAKE TAPPS", "Type": "Fire Station", "Nearby_Count_500": 0, "Nearby_Count_1000": 12, "Nearby_Count_2000": 14, "Nearby_Count_3000": 15, "Nearest_Transit_Distance": 3192.0, "Nearest_Road_Distance": 2894.0, "index_right": 51.0, "RUCA_Code": 1.0, "Cluster": 1 }, "geometry": { "type": "Point", "coordinates": [ -122.197588685603733, 47.229405045879439 ] } },
{ "type": "Feature", "properties": { "Name": "EAST PIERCE FIRE AND RESCUE - STATION 124 (VOLUNTEER - MILTON)", "Address": "1000 LAUREL ST", "City": "MILTON", "Type": "Fire Station", "Nearby_Count_500": 0, "Nearby_Count_1000": 3, "Nearby_Count_2000": 8, "Nearby_Count_3000": 13, "Nearest_Transit_Distance": 389.0, "Nearest_Road_Distance": 1374.0, "index_right": 57.0, "RUCA_Code": 1.0, "Cluster": 2 }, "geometry": { "type": "Point", "coordinates": [ -122.320586514481434, 47.249195578839547 ] } },
{ "type": "Feature", "properties": { "Name": "GIG HARBOR FIRE AND MEDIC ONE - STATION 50 (HEADQUARTERS)", "Address": "10222 BUJACICH RD NW", "City": "GIG HARBOR", "Type": "Fire Station", "Nearby_Count_500": 0, "Nearby_Count_1000": 0, "Nearby_Count_2000": 7, "Nearby_Count_3000": 12, "Nearest_Transit_Distance": 2024.0, "Nearest_Road_Distance": 394.0, "index_right": 119.0, "RUCA_Code": 1.0, "Cluster": 2 }, "geometry": { "type": "Point", "coordinates": [ -122.622797156793553, 47.351291733669662 ] } },
{ "type": "Feature", "properties": { "Name": "GIG HARBOR FIRE AND MEDIC ONE - STATION 51 (KIMBALL)", "Address": "6711 KIMBALL DR", "City": "GIG HARBOR", "Type": "Fire Station", "Nearby_Count_500": 0, "Nearby_Count_1000": 1, "Nearby_Count_2000": 3, "Nearby_Count_3000": 5, "Nearest_Transit_Distance": 168.0, "Nearest_Road_Distance": 240.0, "index_right": 122.0, "RUCA_Code": 1.0, "Cluster": 2 }, "geometry": { "type": "Point", "coordinates": [ -122.586243399569227, 47.31958374252924 ] } },
{ "type": "Feature", "properties": { "Name": "GIG HARBOR FIRE AND MEDIC ONE - STATION 52 (WOLLOCHET)", "Address": "2217 POINT FOSDICK DR NW", "City": "GIG HARBOR", "Type": "Fire Station", "Nearby_Count_500": 0, "Nearby_Count_1000": 0, "Nearby_Count_2000": 0, "Nearby_Count_3000": 0, "Nearest_Transit_Distance": 3729.0, "Nearest_Road_Distance": 2167.0, "index_right": 115.0, "RUCA_Code": 1.0, "Cluster": 1 }, "geometry": { "type": "Point", "coordinates": [ -122.580824203097251, 47.276892735034352 ] } },
{ "type": "Feature", "properties": { "Name": "GIG HARBOR FIRE AND MEDIC ONE - STATION 53 (VOLUNTEER - FOX ISLAND )", "Address": "906 KAMUS DR", "City": "FOX ISLAND", "Type": "Fire Station", "Nearby_Count_500": 0, "Nearby_Count_1000": 0, "Nearby_Count_2000": 2, "Nearby_Count_3000": 2, "Nearest_Transit_Distance": 7840.0, "Nearest_Road_Distance": 7474.0, "index_right": 117.0, "RUCA_Code": 1.0, "Cluster": 1 }, "geometry": { "type": "Point", "coordinates": [ -122.620848683035518, 47.24232415167544 ] } },
{ "type": "Feature", "properties": { "Name": "GIG HARBOR FIRE AND MEDIC ONE - STATION 54 (VOLUNTEER - ARLETTA)", "Address": "4518 RAY NASH DR NW", "City": "GIG HARBOR", "Type": "Fire Station", "Nearby_Count_500": 0, "Nearby_Count_1000": 0, "Nearby_Count_2000": 0, "Nearby_Count_3000": 0, "Nearest_Transit_Distance": 9811.0, "Nearest_Road_Distance": 5542.0, "index_right": 112.0, "RUCA_Code": 1.0, "Cluster": 1 }, "geometry": { "type": "Point", "coordinates": [ -122.67030722273816, 47.298766447958549 ] } },
{ "type": "Feature", "properties": { "Name": "GIG HARBOR FIRE AND MEDIC ONE - STATION 55 (VOLUNTEER - ROSEDALE)", "Address": "7710 ROSEDALE ST NW", "City": "GIG HARBOR", "Type": "Fire Station", "Nearby_Count_500": 0, "Nearby_Count_1000": 0, "Nearby_Count_2000": 0, "Nearby_Count_3000": 0, "Nearest_Transit_Distance": 5173.0, "Nearest_Road_Distance": 953.0, "index_right": 113.0, "RUCA_Code": 1.0, "Cluster": 1 }, "geometry": { "type": "Point", "coordinates": [ -122.641241539944176, 47.329068232681657 ] } },
{ "type": "Feature", "properties": { "Name": "GIG HARBOR FIRE AND MEDIC ONE - STATION 56 (PURDY)", "Address": "5210 144TH ST NW", "City": "GIG HARBOR", "Type": "Fire Station", "Nearby_Count_500": 0, "Nearby_Count_1000": 0, "Nearby_Count_2000": 0, "Nearby_Count_3000": 3, "Nearest_Transit_Distance": 175.0, "Nearest_Road_Distance": 86.0, "index_right": 120.0, "RUCA_Code": 1.0, "Cluster": 1 }, "geometry": { "type": "Point", "coordinates": [ -122.607703039862287, 47.38849632153277 ] } },
{ "type": "Feature", "properties": { "Name": "GIG HARBOR FIRE AND MEDIC ONE - STATION 57 (VOLUNTEER - CRESCENT VALLEY)", "Address": "10521 CRESCENT VALLEY DR NW", "City": "GIG HARBOR", "Type": "Fire Station", "Nearby_Count_500": 0, "Nearby_Count_1000": 0, "Nearby_Count_2000": 3, "Nearby_Count_3000": 4, "Nearest_Transit_Distance": 1264.0, "Nearest_Road_Distance": 3681.0, "index_right": 121.0, "RUCA_Code": 1.0, "Cluster": 1 }, "geometry": { "type": "Point", "coordinates": [ -122.577871583737519, 47.354173678255648 ] } },
{ "type": "Feature", "properties": { "Name": "GIG HARBOR FIRE AND MEDIC ONE - STATION 58 (SWEDE HILL)", "Address": "10302 BUJACICH RD NW", "City": "GIG HARBOR", "Type": "Fire Station", "Nearby_Count_500": 0, "Nearby_Count_1000": 0, "Nearby_Count_2000": 7, "Nearby_Count_3000": 12, "Nearest_Transit_Distance": 2010.0, "Nearest_Road_Distance": 203.0, "index_right": 119.0, "RUCA_Code": 1.0, "Cluster": 2 }, "geometry": { "type": "Point", "coordinates": [ -122.62224187902217, 47.352396527869558 ] } },
{ "type": "Feature", "properties": { "Name": "GIG HARBOR FIRE AND MEDIC ONE - STATION 59 (ARTONDALE)", "Address": "3828 62ND AVE CT NW", "City": "GIG HARBOR", "Type": "Fire Station", "Nearby_Count_500": 1, "Nearby_Count_1000": 2, "Nearby_Count_2000": 3, "Nearby_Count_3000": 3, "Nearest_Transit_Distance": 5026.0, "Nearest_Road_Distance": 1771.0, "index_right": 116.0, "RUCA_Code": 1.0, "Cluster": 2 }, "geometry": { "type": "Point", "coordinates": [ -122.623069439572248, 47.292362088586522 ] } },
{ "type": "Feature", "properties": { "Name": "GRAHAM FIRE AND RESCUE DISTRICT 21 - STATION 91", "Address": "10012 187TH ST E", "City": "PUYALLUP", "Type": "Fire Station", "Nearby_Count_500": 0, "Nearby_Count_1000": 1, "Nearby_Count_2000": 8, "Nearby_Count_3000": 21, "Nearest_Transit_Distance": 1771.0, "Nearest_Road_Distance": 242.0, "index_right": 150.0, "RUCA_Code": 1.0, "Cluster": 2 }, "geometry": { "type": "Point", "coordinates": [ -122.295888412531227, 47.0859601511725 ] } },
{ "type": "Feature", "properties": { "Name": "GRAHAM FIRE AND RESCUE DISTRICT 21 - STATION 92 (VOLUNTEER)", "Address": "14817 KAPOWSIN HWY E", "City": "GRAHAM", "Type": "Fire Station", "Nearby_Count_500": 0, "Nearby_Count_1000": 0, "Nearby_Count_2000": 0, "Nearby_Count_3000": 0, "Nearest_Transit_Distance": 19509.0, "Nearest_Road_Distance": 1638.0, "index_right": 144.0, "RUCA_Code": 2.0, "Cluster": 1 }, "geometry": { "type": "Point", "coordinates": [ -122.236638589922705, 46.984754803921199 ] } },
{ "type": "Feature", "properties": { "Name": "GRAHAM FIRE AND RESCUE DISTRICT 21 - STATION 93", "Address": "8102 304TH ST E", "City": "GRAHAM", "Type": "Fire Station", "Nearby_Count_500": 0, "Nearby_Count_1000": 0, "Nearby_Count_2000": 1, "Nearby_Count_3000": 1, "Nearest_Transit_Distance": 17448.0, "Nearest_Road_Distance": 1128.0, "index_right": 142.0, "RUCA_Code": 2.0, "Cluster": 1 }, "geometry": { "type": "Point", "coordinates": [ -122.325710475144874, 46.979878778730679 ] } },
{ "type": "Feature", "properties": { "Name": "GRAHAM FIRE AND RESCUE DISTRICT 21 - STATION 94 (HEADQUARTERS)", "Address": "23014 70TH AVE E", "City": "GRAHAM", "Type": "Fire Station", "Nearby_Count_500": 0, "Nearby_Count_1000": 0, "Nearby_Count_2000": 1, "Nearby_Count_3000": 4, "Nearest_Transit_Distance": 8948.0, "Nearest_Road_Distance": 76.0, "index_right": 140.0, "RUCA_Code": 1.0, "Cluster": 1 }, "geometry": { "type": "Point", "coordinates": [ -122.338259732225481, 47.047530251227123 ] } },
{ "type": "Feature", "properties": { "Name": "GRAHAM FIRE AND RESCUE DISTRICT 21 - STATION 95", "Address": "18721 78TH AVE E", "City": "PUYALLUP", "Type": "Fire Station", "Nearby_Count_500": 0, "Nearby_Count_1000": 2, "Nearby_Count_2000": 8, "Nearby_Count_3000": 13, "Nearest_Transit_Distance": 3080.0, "Nearest_Road_Distance": 1739.0, "index_right": 150.0, "RUCA_Code": 1.0, "Cluster": 2 }, "geometry": { "type": "Point", "coordinates": [ -122.325134878265203, 47.085786967293181 ] } },
{ "type": "Feature", "properties": { "Name": "GRAHAM FIRE AND RESCUE DISTRICT 21 - STATION 96", "Address": "12827 224TH ST E", "City": "GRAHAM", "Type": "Fire Station", "Nearby_Count_500": 0, "Nearby_Count_1000": 1, "Nearby_Count_2000": 2, "Nearby_Count_3000": 4, "Nearest_Transit_Distance": 8262.0, "Nearest_Road_Distance": 3923.0, "index_right": 138.0, "RUCA_Code": 1.0, "Cluster": 1 }, "geometry": { "type": "Point", "coordinates": [ -122.259540676225029, 47.053323738117911 ] } },
{ "type": "Feature", "properties": { "Name": "ORTING VALLEY FIRE AND RESCUE - STATION 40  (HEADQUARTERS)", "Address": "401 WASHINGTON AVE SE", "City": "ORTING", "Type": "Fire Station", "Nearby_Count_500": 1, "Nearby_Count_1000": 2, "Nearby_Count_2000": 3, "Nearby_Count_3000": 4, "Nearest_Transit_Distance": 10415.0, "Nearest_Road_Distance": 147.0, "index_right": 56.0, "RUCA_Code": 1.0, "Cluster": 2 }, "geometry": { "type": "Point", "coordinates": [ -122.200388203841911, 47.095032949490133 ] } },
{ "type": "Feature", "properties": { "Name": "ORTING VALLEY FIRE AND RESCUE - STATION 42", "Address": "19207 PATTERSON RD E", "City": "ORTING", "Type": "Fire Station", "Nearby_Count_500": 0, "Nearby_Count_1000": 0, "Nearby_Count_2000": 1, "Nearby_Count_3000": 1, "Nearest_Transit_Distance": 15971.0, "Nearest_Road_Distance": 3057.0, "index_right": 38.0, "RUCA_Code": 2.0, "Cluster": 1 }, "geometry": { "type": "Point", "coordinates": [ -122.134210694612804, 47.081930994491636 ] } },
{ "type": "Feature", "properties": { "Name": "ORTING VALLEY FIRE AND RESCUE - STATION 43", "Address": "19503 150TH AVE E", "City": "ORTING", "Type": "Fire Station", "Nearby_Count_500": 0, "Nearby_Count_1000": 0, "Nearby_Count_2000": 1, "Nearby_Count_3000": 1, "Nearest_Transit_Distance": 7893.0, "Nearest_Road_Distance": 4104.0, "index_right": 138.0, "RUCA_Code": 1.0, "Cluster": 1 }, "geometry": { "type": "Point", "coordinates": [ -122.230740125586323, 47.078250769292133 ] } },
{ "type": "Feature", "properties": { "Name": "PIERCE 23 FIRE AND RESCUE - STATION 85", "Address": "50602 MOUNTAIN HWY E", "City": "EATONVILLE", "Type": "Fire Station", "Nearby_Count_500": 0, "Nearby_Count_1000": 0, "Nearby_Count_2000": 0, "Nearby_Count_3000": 0, "Nearest_Transit_Distance": 46750.0, "Nearest_Road_Distance": 65.0, "index_right": 152.0, "RUCA_Code": 2.0, "Cluster": 1 }, "geometry": { "type": "Point", "coordinates": [ -122.27167757146259, 46.798314114674127 ] } },
{ "type": "Feature", "properties": { "Name": "PIERCE 23 FIRE AND RESCUE - STATION 86", "Address": "18109 541ST ST E", "City": "ELBE", "Type": "Fire Station", "Nearby_Count_500": 0, "Nearby_Count_1000": 0, "Nearby_Count_2000": 0, "Nearby_Count_3000": 0, "Nearest_Transit_Distance": 54971.0, "Nearest_Road_Distance": 169.0, "index_right": 152.0, "RUCA_Code": 2.0, "Cluster": 1 }, "geometry": { "type": "Point", "coordinates": [ -122.193308637381946, 46.766399505295972 ] } },
{ "type": "Feature", "properties": { "Name": "PIERCE 23 FIRE AND RESCUE - STATION 87 (HEADQUARTERS)", "Address": "29815 STATE ROUTE 706 E", "City": "ASHFORD", "Type": "Fire Station", "Nearby_Count_500": 0, "Nearby_Count_1000": 0, "Nearby_Count_2000": 0, "Nearby_Count_3000": 0, "Nearest_Transit_Distance": 61966.0, "Nearest_Road_Distance": 60.0, "index_right": 152.0, "RUCA_Code": 2.0, "Cluster": 1 }, "geometry": { "type": "Point", "coordinates": [ -122.038194468259832, 46.760377260615165 ] } },
{ "type": "Feature", "properties": { "Name": "PIERCE 23 FIRE AND RESCUE - STATION 88 (LEWIS)", "Address": "136 OSBORN RD", "City": "ASHFORD", "Type": "Fire Station", "Nearby_Count_500": 0, "Nearby_Count_1000": 0, "Nearby_Count_2000": 0, "Nearby_Count_3000": 0, "Nearest_Transit_Distance": 68301.0, "Nearest_Road_Distance": 1438.0, "index_right": null, "RUCA_Code": null, "Cluster": 1 }, "geometry": { "type": "Point", "coordinates": [ -121.984934059083784, 46.736121762981305 ] } },
{ "type": "Feature", "properties": { "Name": "PIERCE COUNTY FIRE DISTRICT 13 - STATION 76 (DASH POINT FIRE STATION)", "Address": "2101 DOGWOOD ST NE", "City": "TACOMA", "Type": "Fire Station", "Nearby_Count_500": 0, "Nearby_Count_1000": 0, "Nearby_Count_2000": 1, "Nearby_Count_3000": 2, "Nearest_Transit_Distance": 9257.0, "Nearest_Road_Distance": 127.0, "index_right": 161.0, "RUCA_Code": 1.0, "Cluster": 1 }, "geometry": { "type": "Point", "coordinates": [ -122.419491917095911, 47.317362724744925 ] } },
{ "type": "Feature", "properties": { "Name": "PIERCE COUNTY FIRE DISTRICT 13 - STATION 77 (BROWNS POINT FIRE STATION)", "Address": "4815 WA TAU GA AVE NE", "City": "TACOMA", "Type": "Fire Station", "Nearby_Count_500": 0, "Nearby_Count_1000": 0, "Nearby_Count_2000": 0, "Nearby_Count_3000": 0, "Nearest_Transit_Distance": 6156.0, "Nearest_Road_Distance": 191.0, "index_right": 161.0, "RUCA_Code": 1.0, "Cluster": 1 }, "geometry": { "type": "Point", "coordinates": [ -122.436281272871838, 47.30108833961323 ] } },
{ "type": "Feature", "properties": { "Name": "PIERCE COUNTY FIRE DISTRICT 16 - STATION 44", "Address": "10320 SR 302 NW", "City": "GIG HARBOR", "Type": "Fire Station", "Nearby_Count_500": 0, "Nearby_Count_1000": 1, "Nearby_Count_2000": 2, "Nearby_Count_3000": 6, "Nearest_Transit_Distance": 5648.0, "Nearest_Road_Distance": 120.0, "index_right": 118.0, "RUCA_Code": 1.0, "Cluster": 1 }, "geometry": { "type": "Point", "coordinates": [ -122.676041687328748, 47.388161086391527 ] } },
{ "type": "Feature", "properties": { "Name": "PIERCE COUNTY FIRE DISTRICT 16 - STATION 45", "Address": "12310 WRIGHT BLISS RD NW", "City": "GIG HARBOR", "Type": "Fire Station", "Nearby_Count_500": 0, "Nearby_Count_1000": 0, "Nearby_Count_2000": 0, "Nearby_Count_3000": 0, "Nearest_Transit_Distance": 15851.0, "Nearest_Road_Distance": 67.0, "index_right": 123.0, "RUCA_Code": 1.0, "Cluster": 1 }, "geometry": { "type": "Point", "coordinates": [ -122.764707504545697, 47.37000143275597 ] } },
{ "type": "Feature", "properties": { "Name": "PIERCE COUNTY FIRE DISTRICT 16 - STATION 46 (HEADQUARTERS)", "Address": "8911 KEY PENINSULA HWY NW", "City": "LAKEBAY", "Type": "Fire Station", "Nearby_Count_500": 0, "Nearby_Count_1000": 0, "Nearby_Count_2000": 0, "Nearby_Count_3000": 0, "Nearest_Transit_Distance": 15815.0, "Nearest_Road_Distance": 38.0, "index_right": 124.0, "RUCA_Code": 1.0, "Cluster": 1 }, "geometry": { "type": "Point", "coordinates": [ -122.746320468432657, 47.338921946367634 ] } },
{ "type": "Feature", "properties": { "Name": "PIERCE COUNTY FIRE DISTRICT 16 - STATION 47", "Address": "1921 KEY PENINSULA HWY NW", "City": "LAKEBAY", "Type": "Fire Station", "Nearby_Count_500": 1, "Nearby_Count_1000": 1, "Nearby_Count_2000": 1, "Nearby_Count_3000": 6, "Nearest_Transit_Distance": 21285.0, "Nearest_Road_Distance": 67.0, "index_right": 124.0, "RUCA_Code": 1.0, "Cluster": 1 }, "geometry": { "type": "Point", "coordinates": [ -122.767550254592365, 47.275575137565696 ] } },
{ "type": "Feature", "properties": { "Name": "PIERCE COUNTY FIRE DISTRICT 16 - STATION 48", "Address": "901 YEW BLVD NW", "City": "LAKEBAY", "Type": "Fire Station", "Nearby_Count_500": 0, "Nearby_Count_1000": 0, "Nearby_Count_2000": 0, "Nearby_Count_3000": 0, "Nearest_Transit_Distance": 28985.0, "Nearest_Road_Distance": 5553.0, "index_right": 124.0, "RUCA_Code": 1.0, "Cluster": 1 }, "geometry": { "type": "Point", "coordinates": [ -122.835756270012709, 47.266066784808224 ] } },
{ "type": "Feature", "properties": { "Name": "PIERCE COUNTY FIRE DISTRICT 16 - STATION 49", "Address": "4215 KEY PENINSULA HWY SW", "City": "LONGBRANCH", "Type": "Fire Station", "Nearby_Count_500": 0, "Nearby_Count_1000": 0, "Nearby_Count_2000": 0, "Nearby_Count_3000": 1, "Nearest_Transit_Distance": 18953.0, "Nearest_Road_Distance": 66.0, "index_right": 125.0, "RUCA_Code": 2.0, "Cluster": 1 }, "geometry": { "type": "Point", "coordinates": [ -122.758470015680501, 47.21839941751864 ] } },
{ "type": "Feature", "properties": { "Name": "PIERCE COUNTY FIRE DISTRICT 25", "Address": "32004 CRYSTAL MOUNTAIN BLVD E", "City": "ENUMCLAW", "Type": "Fire Station", "Nearby_Count_500": 0, "Nearby_Count_1000": 0, "Nearby_Count_2000": 1, "Nearby_Count_3000": 1, "Nearest_Transit_Distance": 87577.0, "Nearest_Road_Distance": 75.0, "index_right": 38.0, "RUCA_Code": 2.0, "Cluster": 1 }, "geometry": { "type": "Point", "coordinates": [ -121.474029497737376, 46.94359079917232 ] } },
{ "type": "Feature", "properties": { "Name": "PIERCE COUNTY FIRE DISTRICT 26 - STATION 1", "Address": "59705 STATE ROUTE 410 E", "City": "ENUMCLAW", "Type": "Fire Station", "Nearby_Count_500": 0, "Nearby_Count_1000": 0, "Nearby_Count_2000": 0, "Nearby_Count_3000": 0, "Nearest_Transit_Distance": 61137.0, "Nearest_Road_Distance": 47.0, "index_right": 38.0, "RUCA_Code": 2.0, "Cluster": 1 }, "geometry": { "type": "Point", "coordinates": [ -121.637191101980548, 47.14527164269596 ] } },
{ "type": "Feature", "properties": { "Name": "PIERCE COUNTY FIRE DISTRICT 26 - STATION 2", "Address": "15922 CRYSTAL RIVER RANCH RD E", "City": "GREENWATER", "Type": "Fire Station", "Nearby_Count_500": 0, "Nearby_Count_1000": 1, "Nearby_Count_2000": 1, "Nearby_Count_3000": 1, "Nearest_Transit_Distance": 64272.0, "Nearest_Road_Distance": 945.0, "index_right": 38.0, "RUCA_Code": 2.0, "Cluster": 1 }, "geometry": { "type": "Point", "coordinates": [ -121.614237175499625, 47.113388100257815 ] } },
{ "type": "Feature", "properties": { "Name": "PIERCE COUNTY FIRE DISTRICT 27 - ANDERSON ISLAND FIRE AND RESCUE", "Address": "12207 LAKE JOSEPHINE BLVD", "City": "ANDERSON ISLAND", "Type": "Fire Station", "Nearby_Count_500": 0, "Nearby_Count_1000": 0, "Nearby_Count_2000": 0, "Nearby_Count_3000": 1, "Nearest_Transit_Distance": 10940.0, "Nearest_Road_Distance": 251.0, "index_right": 125.0, "RUCA_Code": 2.0, "Cluster": 1 }, "geometry": { "type": "Point", "coordinates": [ -122.701343948440666, 47.165923997255469 ] } },
{ "type": "Feature", "properties": { "Name": "RIVERSIDE FIRE DISTRICT - PCFD #14", "Address": "4114 56TH AVE E", "City": "PUYALLUP", "Type": "Fire Station", "Nearby_Count_500": 0, "Nearby_Count_1000": 3, "Nearby_Count_2000": 6, "Nearby_Count_3000": 14, "Nearest_Transit_Distance": 2044.0, "Nearest_Road_Distance": 165.0, "index_right": 164.0, "RUCA_Code": 1.0, "Cluster": 2 }, "geometry": { "type": "Point", "coordinates": [ -122.355207574415331, 47.219688686023169 ] } },
{ "type": "Feature", "properties": { "Name": "RUSTON FIRE DEPARTMENT", "Address": "5117 N WINNIFRED ST", "City": "RUSTON", "Type": "Fire Station", "Nearby_Count_500": 0, "Nearby_Count_1000": 3, "Nearby_Count_2000": 9, "Nearby_Count_3000": 13, "Nearest_Transit_Distance": 363.0, "Nearest_Road_Distance": 81.0, "index_right": 1.0, "RUCA_Code": 1.0, "Cluster": 2 }, "geometry": { "type": "Point", "coordinates": [ -122.512605139615289, 47.298707459834432 ] } },
{ "type": "Feature", "properties": { "Name": "SOUTH PIERCE FIRE AND RESCUE - STATION 170", "Address": "5403 340TH ST E", "City": "EATONVILLE", "Type": "Fire Station", "Nearby_Count_500": 0, "Nearby_Count_1000": 0, "Nearby_Count_2000": 1, "Nearby_Count_3000": 2, "Nearest_Transit_Distance": 20648.0, "Nearest_Road_Distance": 88.0, "index_right": 142.0, "RUCA_Code": 2.0, "Cluster": 1 }, "geometry": { "type": "Point", "coordinates": [ -122.356679852886799, 46.94782180094851 ] } },
{ "type": "Feature", "properties": { "Name": "SOUTH PIERCE FIRE AND RESCUE - STATION 171", "Address": "302 MCNAUGHT ST S", "City": "ROY", "Type": "Fire Station", "Nearby_Count_500": 1, "Nearby_Count_1000": 2, "Nearby_Count_2000": 2, "Nearby_Count_3000": 2, "Nearest_Transit_Distance": 17382.0, "Nearest_Road_Distance": 35.0, "index_right": 132.0, "RUCA_Code": 2.0, "Cluster": 1 }, "geometry": { "type": "Point", "coordinates": [ -122.543360245639747, 47.002525590189244 ] } },
{ "type": "Feature", "properties": { "Name": "SOUTH PIERCE FIRE AND RESCUE - STATION 172 (VOLUNTEER)", "Address": "39901 HARTS LAKE VALLEY RD S", "City": "ROY", "Type": "Fire Station", "Nearby_Count_500": 0, "Nearby_Count_1000": 0, "Nearby_Count_2000": 0, "Nearby_Count_3000": 0, "Nearest_Transit_Distance": 29091.0, "Nearest_Road_Distance": 746.0, "index_right": 134.0, "RUCA_Code": 2.0, "Cluster": 1 }, "geometry": { "type": "Point", "coordinates": [ -122.478340556277686, 46.8952356272166 ] } },
{ "type": "Feature", "properties": { "Name": "SOUTH PIERCE FIRE AND RESCUE - STATION 173 (VOLUNTEER)", "Address": "29401 8TH AVE S", "City": "ROY", "Type": "Fire Station", "Nearby_Count_500": 0, "Nearby_Count_1000": 0, "Nearby_Count_2000": 0, "Nearby_Count_3000": 0, "Nearest_Transit_Distance": 13363.0, "Nearest_Road_Distance": 1071.0, "index_right": 133.0, "RUCA_Code": 2.0, "Cluster": 1 }, "geometry": { "type": "Point", "coordinates": [ -122.44272785103324, 46.988589196395992 ] } },
{ "type": "Feature", "properties": { "Name": "SOUTH PIERCE FIRE AND RESCUE - STATION 174 (VOLUNTEER)", "Address": "9207 356TH ST S", "City": "ROY", "Type": "Fire Station", "Nearby_Count_500": 1, "Nearby_Count_1000": 3, "Nearby_Count_2000": 3, "Nearby_Count_3000": 4, "Nearest_Transit_Distance": 26714.0, "Nearest_Road_Distance": 359.0, "index_right": 134.0, "RUCA_Code": 2.0, "Cluster": 1 }, "geometry": { "type": "Point", "coordinates": [ -122.55323991645902, 46.934679448854425 ] } },
{ "type": "Feature", "properties": { "Name": "SOUTH PIERCE FIRE AND RESCUE - STATION 175 (VOLUNTEER)", "Address": "11111 TREK DR E", "City": "EATONVILLE", "Type": "Fire Station", "Nearby_Count_500": 1, "Nearby_Count_1000": 1, "Nearby_Count_2000": 1, "Nearby_Count_3000": 5, "Nearest_Transit_Distance": 27807.0, "Nearest_Road_Distance": 141.0, "index_right": 152.0, "RUCA_Code": 2.0, "Cluster": 1 }, "geometry": { "type": "Point", "coordinates": [ -122.282829286884365, 46.92316213781185 ] } },
{ "type": "Feature", "properties": { "Name": "SOUTH PIERCE FIRE AND RESCUE - STATION 176 (VOLUNTEER)", "Address": "6606 416TH ST E", "City": "EATONVILLE", "Type": "Fire Station", "Nearby_Count_500": 0, "Nearby_Count_1000": 0, "Nearby_Count_2000": 0, "Nearby_Count_3000": 0, "Nearest_Transit_Distance": 31874.0, "Nearest_Road_Distance": 97.0, "index_right": 134.0, "RUCA_Code": 2.0, "Cluster": 1 }, "geometry": { "type": "Point", "coordinates": [ -122.345072103808619, 46.878477055585059 ] } },
{ "type": "Feature", "properties": { "Name": "SOUTH PIERCE FIRE AND RESCUE - STATION 84", "Address": "201 CENTER ST W", "City": "EATONVILLE", "Type": "Fire Station", "Nearby_Count_500": 1, "Nearby_Count_1000": 3, "Nearby_Count_2000": 5, "Nearby_Count_3000": 5, "Nearest_Transit_Distance": 36573.0, "Nearest_Road_Distance": 27.0, "index_right": 152.0, "RUCA_Code": 2.0, "Cluster": 1 }, "geometry": { "type": "Point", "coordinates": [ -122.268349239581127, 46.867175913834402 ] } },
{ "type": "Feature", "properties": { "Name": "TACOMA FIRE DEPARTMENT - STATION 12", "Address": "2015 54TH AVE E", "City": "FIFE", "Type": "Fire Station", "Nearby_Count_500": 3, "Nearby_Count_1000": 41, "Nearby_Count_2000": 57, "Nearby_Count_3000": 75, "Nearest_Transit_Distance": 81.0, "Nearest_Road_Distance": 141.0, "index_right": 163.0, "RUCA_Code": 1.0, "Cluster": 3 }, "geometry": { "type": "Point", "coordinates": [ -122.356481079988995, 47.238214723704914 ] } },
{ "type": "Feature", "properties": { "Name": "TACOMA FIRE DEPARTMENT - STATION 17", "Address": "302 REGENTS BLVD", "City": "FIRCREST", "Type": "Fire Station", "Nearby_Count_500": 0, "Nearby_Count_1000": 4, "Nearby_Count_2000": 18, "Nearby_Count_3000": 41, "Nearest_Transit_Distance": 48.0, "Nearest_Road_Distance": 533.0, "index_right": 104.0, "RUCA_Code": 1.0, "Cluster": 2 }, "geometry": { "type": "Point", "coordinates": [ -122.509840750777869, 47.235157765022024 ] } },
{ "type": "Feature", "properties": { "Name": "WEST PIERCE FIRE AND RESCUE - STATION 20", "Address": "10928 PACIFIC HWY SW", "City": "LAKEWOOD", "Type": "Fire Station", "Nearby_Count_500": 4, "Nearby_Count_1000": 13, "Nearby_Count_2000": 39, "Nearby_Count_3000": 72, "Nearest_Transit_Distance": 283.0, "Nearest_Road_Distance": 334.0, "index_right": 92.0, "RUCA_Code": 1.0, "Cluster": 3 }, "geometry": { "type": "Point", "coordinates": [ -122.490649963153288, 47.157921785492846 ] } },
{ "type": "Feature", "properties": { "Name": "WEST PIERCE FIRE AND RESCUE - STATION 21", "Address": "5000 STEILACOOM BLVD SW", "City": "LAKEWOOD", "Type": "Fire Station", "Nearby_Count_500": 0, "Nearby_Count_1000": 3, "Nearby_Count_2000": 19, "Nearby_Count_3000": 69, "Nearest_Transit_Distance": 144.0, "Nearest_Road_Distance": 58.0, "index_right": 92.0, "RUCA_Code": 1.0, "Cluster": 2 }, "geometry": { "type": "Point", "coordinates": [ -122.504473324309046, 47.17616616954308 ] } },
{ "type": "Feature", "properties": { "Name": "WEST PIERCE FIRE AND RESCUE - STATION 22", "Address": "8517 WASHINGTON BLVD SW", "City": "LAKEWOOD", "Type": "Fire Station", "Nearby_Count_500": 0, "Nearby_Count_1000": 3, "Nearby_Count_2000": 7, "Nearby_Count_3000": 9, "Nearest_Transit_Distance": 66.0, "Nearest_Road_Distance": 64.0, "index_right": 100.0, "RUCA_Code": 1.0, "Cluster": 2 }, "geometry": { "type": "Point", "coordinates": [ -122.550809264062508, 47.148900618173428 ] } },
{ "type": "Feature", "properties": { "Name": "WEST PIERCE FIRE AND RESCUE - STATION 23", "Address": "14505 GRANT AVE SW", "City": "LAKEWOOD", "Type": "Fire Station", "Nearby_Count_500": 2, "Nearby_Count_1000": 4, "Nearby_Count_2000": 8, "Nearby_Count_3000": 10, "Nearest_Transit_Distance": 368.0, "Nearest_Road_Distance": 526.0, "index_right": 96.0, "RUCA_Code": 1.0, "Cluster": 2 }, "geometry": { "type": "Point", "coordinates": [ -122.551003443023234, 47.126654632275205 ] } },
{ "type": "Feature", "properties": { "Name": "WEST PIERCE FIRE AND RESCUE - STATION 24", "Address": "8310 87TH AVE SW", "City": "LAKEWOOD", "Type": "Fire Station", "Nearby_Count_500": 1, "Nearby_Count_1000": 6, "Nearby_Count_2000": 11, "Nearby_Count_3000": 13, "Nearest_Transit_Distance": 354.0, "Nearest_Road_Distance": 360.0, "index_right": 97.0, "RUCA_Code": 1.0, "Cluster": 2 }, "geometry": { "type": "Point", "coordinates": [ -122.553540968402402, 47.181465051164224 ] } },
{ "type": "Feature", "properties": { "Name": "WEST PIERCE FIRE AND RESCUE - STATION 31", "Address": "3631 DREXLER DR W", "City": "UNIVERSITY PLACE", "Type": "Fire Station", "Nearby_Count_500": 0, "Nearby_Count_1000": 2, "Nearby_Count_2000": 6, "Nearby_Count_3000": 9, "Nearest_Transit_Distance": 314.0, "Nearest_Road_Distance": 233.0, "index_right": 109.0, "RUCA_Code": 1.0, "Cluster": 2 }, "geometry": { "type": "Point", "coordinates": [ -122.534949991695001, 47.224748090503248 ] } },
{ "type": "Feature", "properties": { "Name": "WILKESON FIRE STATION", "Address": "501 CHURCH ST", "City": "WILKESON", "Type": "Fire Station", "Nearby_Count_500": 1, "Nearby_Count_1000": 1, "Nearby_Count_2000": 1, "Nearby_Count_3000": 1, "Nearest_Transit_Distance": 18854.0, "Nearest_Road_Distance": 41.0, "index_right": 42.0, "RUCA_Code": 1.0, "Cluster": 1 }, "geometry": { "type": "Point", "coordinates": [ -122.046813200339429, 47.106500301025775 ] } },
{ "type": "Feature", "properties": { "Name": "VALLEY REGIONAL FIRE AUTHORITY STATION 33", "Address": "500 182ND AVE E", "City": "AUBURN", "Type": "Fire Station", "Nearby_Count_500": 2, "Nearby_Count_1000": 2, "Nearby_Count_2000": 5, "Nearby_Count_3000": 5, "Nearest_Transit_Distance": 2745.0, "Nearest_Road_Distance": 471.0, "index_right": 52.0, "RUCA_Code": 1.0, "Cluster": 2 }, "geometry": { "type": "Point", "coordinates": [ -122.187498980960328, 47.253391067242653 ] } },
{ "type": "Feature", "properties": { "Name": "EAST PIERCE FIRE AND RESCUE - STATION 117 (TEHALEH STATION) (OPENING 2024/5)", "Address": "14504 181ST AVE E", "City": "BONNEY LAKE", "Type": "Fire Station", "Nearby_Count_500": 0, "Nearby_Count_1000": 0, "Nearby_Count_2000": 0, "Nearby_Count_3000": 1, "Nearest_Transit_Distance": 7898.0, "Nearest_Road_Distance": 4354.0, "index_right": 39.0, "RUCA_Code": 1.0, "Cluster": 1 }, "geometry": { "type": "Point", "coordinates": [ -122.189642202323725, 47.125116530020939 ] } },
{ "type": "Feature", "properties": { "Name": "MCNEIL ISLAND FIRE DEPARTMENT", "Address": "COASTAL RD", "City": "STEILACOOM", "Type": "Fire Station", "Nearby_Count_500": 0, "Nearby_Count_1000": 0, "Nearby_Count_2000": 0, "Nearby_Count_3000": 0, "Nearest_Transit_Distance": 7841.0, "Nearest_Road_Distance": 3221.0, "index_right": 125.0, "RUCA_Code": 2.0, "Cluster": 1 }, "geometry": { "type": "Point", "coordinates": [ -122.663537937946074, 47.19585605970348 ] } },
{ "type": "Feature", "properties": { "Name": "CENTRAL PIERCE FIRE AND RESCUE - STATION 62", "Address": "1410 BROOKDALE RD E", "City": "TACOMA", "Type": "Fire Station", "Nearby_Count_500": 0, "Nearby_Count_1000": 2, "Nearby_Count_2000": 2, "Nearby_Count_3000": 20, "Nearest_Transit_Distance": 2751.0, "Nearest_Road_Distance": 2532.0, "index_right": 81.0, "RUCA_Code": 1.0, "Cluster": 1 }, "geometry": { "type": "Point", "coordinates": [ -122.409920799351312, 47.13426043837503 ] } },
{ "type": "Feature", "properties": { "Name": "Angus DEO Lutheran Church", "Address": null, "City": null, "Type": "Safe Parking", "Nearby_Count_500": 0, "Nearby_Count_1000": 1, "Nearby_Count_2000": 2, "Nearby_Count_3000": 15, "Nearest_Transit_Distance": 137.0, "Nearest_Road_Distance": 2588.0, "index_right": 120.0, "RUCA_Code": 1.0, "Cluster": 1 }, "geometry": { "type": "Point", "coordinates": [ -122.588134899999986, 47.35424103 ] } },
{ "type": "Feature", "properties": { "Name": "Spanaway United methodist", "Address": null, "City": null, "Type": "Safe Parking", "Nearby_Count_500": 2, "Nearby_Count_1000": 5, "Nearby_Count_2000": 38, "Nearby_Count_3000": 54, "Nearest_Transit_Distance": 148.0, "Nearest_Road_Distance": 130.0, "index_right": 74.0, "RUCA_Code": 1.0, "Cluster": 3 }, "geometry": { "type": "Point", "coordinates": [ -122.4335993, 47.10905268 ] } }
]
}
